[
  {
    "name": "Acworth Health Park",
    "address": "4550 Cobb Pkwy N, Acworth, GA 30101",
    "lat": 34.060035965162,
    "lon": -84.720826992381
  },
  {
    "name": "Advanced Imaging Center 210",
    "address": "60 Lacy St NW, Marietta, GA 30060",
    "lat": 33.9665239,
    "lon": -84.5540066
  },
  {
    "name": "AHI - Cummings",
    "address": "1050 Haw Creek Pkwy Ste 100, Cumming, GA 30041",
    "lat": 34.172498627188,
    "lon": -84.128132275769
  },
  {
    "name": "AHI - Lawrenceville",
    "address": "481 W Pike St, Lawrenceville, GA 30046",
    "lat": 33.95929,
    "lon": -84.0032593
  },
  {
    "name": "AHI - Sandy Springs",
    "address": "1200 Lake Hearn Dr NE Ste 100, Atlanta, GA",
    "lat": 33.912590824904,
    "lon": -84.347809759943
  },
  {
    "name": "Camp Creek Imaging Center",
    "address": "3890 Redwine Rd SW Suite 104, Atlanta, GA 30331",
    "lat": 33.7224,
    "lon": -84.5205
  },
  {
    "name": "Cherokee Health Park",
    "address": "1120 Wellstar Way, Holly Springs, GA 30114",
    "lat": 34.1429522,
    "lon": -84.521887
  },
  {
    "name": "Cobb Hospital",
    "address": "3950 Austell Rd, Austell, GA 30106",
    "lat": 33.8576031,
    "lon": -84.604519
  },
  {
    "name": "Douglas Hospital",
    "address": "8954 Hospital Dr, Douglasville, GA 30134",
    "lat": 33.7389043,
    "lon": -84.7318193
  },
  {
    "name": "Douglas Imaging Center",
    "address": "8954 Hospital Dr, Douglasville, GA 30134",
    "lat": 33.7389043,
    "lon": -84.7318193
  },
  {
    "name": "East Cobb Health Park",
    "address": "3747 Roswell Rd, Marietta, GA 30062",
    "lat": 33.9801823,
    "lon": -84.4450897
  },
  {
    "name": "Kennestone Hospital",
    "address": "677 Church St, Marietta, GA 30060",
    "lat": 33.9685978,
    "lon": -84.552905
  },
  {
    "name": "North Fulton Hospital",
    "address": "3000 Hospital Blvd, Roswell, GA 30076",
    "lat": 34.0631381,
    "lon": -84.3201691
  },
  {
    "name": "Paulding Hospital & Imaging Center",
    "address": "2518 Jimmy Lee Smith Pkwy, Hiram, GA 30141",
    "lat": 33.9008798,
    "lon": -84.781026
  },
  {
    "name": "Pediatric Center",
    "address": "1180 Ernest W Barrett Pkwy NW, Kennesaw, GA 30144",
    "lat": 34.0010209,
    "lon": -84.5844866
  },
  {
    "name": "Pinnacle - Marietta",
    "address": "300 Tower Rd #200, Marietta, GA 30060",
    "lat": 33.970443402779,
    "lon": -84.554281114758
  },
  {
    "name": "Pinnacle - Woodstock",
    "address": "1505 Stone Bridge Pkwy #200, Woodstock, GA 30189",
    "lat": 34.102504571155,
    "lon": -84.536350399942
  },
  {
    "name": "Quantum Radiology Main Office",
    "address": "790 Church St Suite 400, Marietta, GA 30060",
    "lat": 33.971037138022,
    "lon": -84.550553039159
  },
  {
    "name": "Roswell Imaging Center",
    "address": "4500 Hospital Blvd Suite 100, Roswell, GA 30076",
    "lat": 34.0213,
    "lon": -84.3104
  },
  {
    "name": "South Cobb Imaging Center",
    "address": "1625 Hospital N Dr, Austell, GA 30106",
    "lat": 33.857933121823,
    "lon": -84.602847716459
  },
  {
    "name": "Vinings Health Park",
    "address": "4441 Atlanta Rd SE, Smyrna, GA 30080",
    "lat": 33.882264,
    "lon": -84.5136632
  },
  {
    "name": "Windy Hill Hospital",
    "address": "2540 Windy Hill Rd SE, Marietta, GA 30067",
    "lat": 33.8993898,
    "lon": -84.4804011
  }
]